TimeStamp,VehicleModel,SteeringAngle,AccelPedalRate,BrakePedalRate,Velocity,YawRate,RollRate,PitchRate,Latitude,Longitude,Height,Roll,Pitch,Yaw
0,IONIQ6,0,0,0,0,0,0,0,0,0,0,0,0,0
0.1,IONIQ6,1,1,1,1,1,1,1,1,1,1,1,1,1
0.2,IONIQ6,2,2,2,2,2,2,2,2,2,2,2,2,2
0.3,IONIQ6,3,3,3,3,3,3,3,3,3,3,3,3,3
0.4,IONIQ6,4,4,4,4,4,4,4,4,4,4,4,4,4
0.5,IONIQ6,5,5,5,5,5,5,5,5,5,5,5,5,5
0.6,IONIQ6,6,6,6,6,6,6,6,6,6,6,6,6,6
0.7,IONIQ6,7,7,7,7,7,7,7,7,7,7,7,7,7
0.8,IONIQ6,8,8,8,8,8,8,8,8,8,8,8,8,8
0.9,IONIQ6,9,9,9,9,9,9,9,9,9,9,9,9,9
1,IONIQ6,10,10,10,10,10,10,10,10,10,10,10,10,10
1.1,IONIQ6,11,11,11,11,11,11,11,11,11,11,11,11,11
1.2,IONIQ6,12,12,12,12,12,12,12,12,12,12,12,12,12
1.3,IONIQ6,13,13,13,13,13,13,13,13,13,13,13,13,13
1.4,IONIQ6,14,14,14,14,14,14,14,14,14,14,14,14,14
1.5,IONIQ6,15,15,15,15,15,15,15,15,15,15,15,15,15
1.6,IONIQ6,16,16,16,16,16,16,16,16,16,16,16,16,16
1.7,IONIQ6,17,17,17,17,17,17,17,17,17,17,17,17,17
1.8,IONIQ6,18,18,18,18,18,18,18,18,18,18,18,18,18
1.9,IONIQ6,19,19,19,19,19,19,19,19,19,19,19,19,19
2,IONIQ6,20,20,20,20,20,20,20,20,20,20,20,20,20
2.1,IONIQ6,21,21,21,21,21,21,21,21,21,21,21,21,21
2.2,IONIQ6,22,22,22,22,22,22,22,22,22,22,22,22,22
2.3,IONIQ6,23,23,23,23,23,23,23,23,23,23,23,23,23
2.4,IONIQ6,24,24,24,24,24,24,24,24,24,24,24,24,24
2.5,IONIQ6,25,25,25,25,25,25,25,25,25,25,25,25,25
2.6,IONIQ6,26,26,26,26,26,26,26,26,26,26,26,26,26
2.7,IONIQ6,27,27,27,27,27,27,27,27,27,27,27,27,27
2.8,IONIQ6,28,28,28,28,28,28,28,28,28,28,28,28,28
2.9,IONIQ6,29,29,29,29,29,29,29,29,29,29,29,29,29
3,IONIQ6,30,30,30,30,30,30,30,30,30,30,30,30,30
3.1,IONIQ6,31,31,31,31,31,31,31,31,31,31,31,31,31
3.2,IONIQ6,32,32,32,32,32,32,32,32,32,32,32,32,32
3.3,IONIQ6,33,33,33,33,33,33,33,33,33,33,33,33,33
3.4,IONIQ6,34,34,34,34,34,34,34,34,34,34,34,34,34
3.5,IONIQ6,35,35,35,35,35,35,35,35,35,35,35,35,35
3.6,IONIQ6,36,36,36,36,36,36,36,36,36,36,36,36,36
3.7,IONIQ6,37,37,37,37,37,37,37,37,37,37,37,37,37
3.8,IONIQ6,38,38,38,38,38,38,38,38,38,38,38,38,38
3.9,IONIQ6,39,39,39,39,39,39,39,39,39,39,39,39,39
4,IONIQ6,40,40,40,40,40,40,40,40,40,40,40,40,40
4.1,IONIQ6,41,41,41,41,41,41,41,41,41,41,41,41,41
4.2,IONIQ6,42,42,42,42,42,42,42,42,42,42,42,42,42
4.3,IONIQ6,43,43,43,43,43,43,43,43,43,43,43,43,43
4.4,IONIQ6,44,44,44,44,44,44,44,44,44,44,44,44,44
4.5,IONIQ6,45,45,45,45,45,45,45,45,45,45,45,45,45
4.6,IONIQ6,46,46,46,46,46,46,46,46,46,46,46,46,46
4.7,IONIQ6,47,47,47,47,47,47,47,47,47,47,47,47,47
4.8,IONIQ6,48,48,48,48,48,48,48,48,48,48,48,48,48
4.9,IONIQ6,49,49,49,49,49,49,49,49,49,49,49,49,49
5,IONIQ6,50,50,50,50,50,50,50,50,50,50,50,50,50
5.1,IONIQ6,51,51,51,51,51,51,51,51,51,51,51,51,51
5.2,IONIQ6,52,52,52,52,52,52,52,52,52,52,52,52,52
5.3,IONIQ6,53,53,53,53,53,53,53,53,53,53,53,53,53
5.4,IONIQ6,54,54,54,54,54,54,54,54,54,54,54,54,54
5.5,IONIQ6,55,55,55,55,55,55,55,55,55,55,55,55,55
5.6,IONIQ6,56,56,56,56,56,56,56,56,56,56,56,56,56
5.7,IONIQ6,57,57,57,57,57,57,57,57,57,57,57,57,57
5.8,IONIQ6,58,58,58,58,58,58,58,58,58,58,58,58,58
5.9,IONIQ6,59,59,59,59,59,59,59,59,59,59,59,59,59
6,IONIQ6,60,60,60,60,60,60,60,60,60,60,60,60,60
6.1,IONIQ6,61,61,61,61,61,61,61,61,61,61,61,61,61
6.2,IONIQ6,62,62,62,62,62,62,62,62,62,62,62,62,62
6.3,IONIQ6,63,63,63,63,63,63,63,63,63,63,63,63,63
6.4,IONIQ6,64,64,64,64,64,64,64,64,64,64,64,64,64
6.5,IONIQ6,65,65,65,65,65,65,65,65,65,65,65,65,65
6.6,IONIQ6,66,66,66,66,66,66,66,66,66,66,66,66,66
6.7,IONIQ6,67,67,67,67,67,67,67,67,67,67,67,67,67
6.8,IONIQ6,68,68,68,68,68,68,68,68,68,68,68,68,68
6.9,IONIQ6,69,69,69,69,69,69,69,69,69,69,69,69,69
7,IONIQ6,70,70,70,70,70,70,70,70,70,70,70,70,70
7.1,IONIQ6,71,71,71,71,71,71,71,71,71,71,71,71,71
7.2,IONIQ6,72,72,72,72,72,72,72,72,72,72,72,72,72
7.3,IONIQ6,73,73,73,73,73,73,73,73,73,73,73,73,73
7.4,IONIQ6,74,74,74,74,74,74,74,74,74,74,74,74,74
7.5,IONIQ6,75,75,75,75,75,75,75,75,75,75,75,75,75
7.6,IONIQ6,76,76,76,76,76,76,76,76,76,76,76,76,76
7.7,IONIQ6,77,77,77,77,77,77,77,77,77,77,77,77,77
7.8,IONIQ6,78,78,78,78,78,78,78,78,78,78,78,78,78
7.9,IONIQ6,79,79,79,79,79,79,79,79,79,79,79,79,79
8,IONIQ6,80,80,80,80,80,80,80,80,80,80,80,80,80
8.1,IONIQ6,81,81,81,81,81,81,81,81,81,81,81,81,81
8.2,IONIQ6,82,82,82,82,82,82,82,82,82,82,82,82,82
8.3,IONIQ6,83,83,83,83,83,83,83,83,83,83,83,83,83
8.4,IONIQ6,84,84,84,84,84,84,84,84,84,84,84,84,84
8.5,IONIQ6,85,85,85,85,85,85,85,85,85,85,85,85,85
8.6,IONIQ6,86,86,86,86,86,86,86,86,86,86,86,86,86
8.7,IONIQ6,87,87,87,87,87,87,87,87,87,87,87,87,87
8.8,IONIQ6,88,88,88,88,88,88,88,88,88,88,88,88,88
8.9,IONIQ6,89,89,89,89,89,89,89,89,89,89,89,89,89
9,IONIQ6,90,90,90,90,90,90,90,90,90,90,90,90,90
9.1,IONIQ6,91,91,91,91,91,91,91,91,91,91,91,91,91
9.2,IONIQ6,92,92,92,92,92,92,92,92,92,92,92,92,92
9.3,IONIQ6,93,93,93,93,93,93,93,93,93,93,93,93,93
9.4,IONIQ6,94,94,94,94,94,94,94,94,94,94,94,94,94
9.5,IONIQ6,95,95,95,95,95,95,95,95,95,95,95,95,95
9.6,IONIQ6,96,96,96,96,96,96,96,96,96,96,96,96,96
9.7,IONIQ6,97,97,97,97,97,97,97,97,97,97,97,97,97
9.8,IONIQ6,98,98,98,98,98,98,98,98,98,98,98,98,98
9.9,IONIQ6,99,99,99,99,99,99,99,99,99,99,99,99,99
10,IONIQ6,100,100,100,100,100,100,100,100,100,100,100,100,100
10.1,IONIQ6,101,101,101,101,101,101,101,101,101,101,101,101,101
10.2,IONIQ6,102,102,102,102,102,102,102,102,102,102,102,102,102
10.3,IONIQ6,103,103,103,103,103,103,103,103,103,103,103,103,103
10.4,IONIQ6,104,104,104,104,104,104,104,104,104,104,104,104,104
10.5,IONIQ6,105,105,105,105,105,105,105,105,105,105,105,105,105
10.6,IONIQ6,106,106,106,106,106,106,106,106,106,106,106,106,106
10.7,IONIQ6,107,107,107,107,107,107,107,107,107,107,107,107,107
10.8,IONIQ6,108,108,108,108,108,108,108,108,108,108,108,108,108
10.9,IONIQ6,109,109,109,109,109,109,109,109,109,109,109,109,109
11,IONIQ6,110,110,110,110,110,110,110,110,110,110,110,110,110
11.1,IONIQ6,111,111,111,111,111,111,111,111,111,111,111,111,111
11.2,IONIQ6,112,112,112,112,112,112,112,112,112,112,112,112,112
11.3,IONIQ6,113,113,113,113,113,113,113,113,113,113,113,113,113
11.4,IONIQ6,114,114,114,114,114,114,114,114,114,114,114,114,114
11.5,IONIQ6,115,115,115,115,115,115,115,115,115,115,115,115,115
11.6,IONIQ6,116,116,116,116,116,116,116,116,116,116,116,116,116
11.7,IONIQ6,117,117,117,117,117,117,117,117,117,117,117,117,117
11.8,IONIQ6,118,118,118,118,118,118,118,118,118,118,118,118,118
11.9,IONIQ6,119,119,119,119,119,119,119,119,119,119,119,119,119
12,IONIQ6,120,120,120,120,120,120,120,120,120,120,120,120,120
12.1,IONIQ6,121,121,121,121,121,121,121,121,121,121,121,121,121
12.2,IONIQ6,122,122,122,122,122,122,122,122,122,122,122,122,122
12.3,IONIQ6,123,123,123,123,123,123,123,123,123,123,123,123,123
12.4,IONIQ6,124,124,124,124,124,124,124,124,124,124,124,124,124
12.5,IONIQ6,125,125,125,125,125,125,125,125,125,125,125,125,125
12.6,IONIQ6,126,126,126,126,126,126,126,126,126,126,126,126,126
12.7,IONIQ6,127,127,127,127,127,127,127,127,127,127,127,127,127
12.8,IONIQ6,128,128,128,128,128,128,128,128,128,128,128,128,128
12.9,IONIQ6,129,129,129,129,129,129,129,129,129,129,129,129,129
13,IONIQ6,130,130,130,130,130,130,130,130,130,130,130,130,130
13.1,IONIQ6,131,131,131,131,131,131,131,131,131,131,131,131,131
13.2,IONIQ6,132,132,132,132,132,132,132,132,132,132,132,132,132
13.3,IONIQ6,133,133,133,133,133,133,133,133,133,133,133,133,133
13.4,IONIQ6,134,134,134,134,134,134,134,134,134,134,134,134,134
13.5,IONIQ6,135,135,135,135,135,135,135,135,135,135,135,135,135
13.6,IONIQ6,136,136,136,136,136,136,136,136,136,136,136,136,136
13.7,IONIQ6,137,137,137,137,137,137,137,137,137,137,137,137,137
13.8,IONIQ6,138,138,138,138,138,138,138,138,138,138,138,138,138
13.9,IONIQ6,139,139,139,139,139,139,139,139,139,139,139,139,139
14,IONIQ6,140,140,140,140,140,140,140,140,140,140,140,140,140
14.1,IONIQ6,141,141,141,141,141,141,141,141,141,141,141,141,141
14.2,IONIQ6,142,142,142,142,142,142,142,142,142,142,142,142,142
14.3,IONIQ6,143,143,143,143,143,143,143,143,143,143,143,143,143
14.4,IONIQ6,144,144,144,144,144,144,144,144,144,144,144,144,144
14.5,IONIQ6,145,145,145,145,145,145,145,145,145,145,145,145,145
14.6,IONIQ6,146,146,146,146,146,146,146,146,146,146,146,146,146
14.7,IONIQ6,147,147,147,147,147,147,147,147,147,147,147,147,147
14.8,IONIQ6,148,148,148,148,148,148,148,148,148,148,148,148,148
14.9,IONIQ6,149,149,149,149,149,149,149,149,149,149,149,149,149
15,IONIQ6,150,150,150,150,150,150,150,150,150,150,150,150,150
15.1,IONIQ6,151,151,151,151,151,151,151,151,151,151,151,151,151
15.2,IONIQ6,152,152,152,152,152,152,152,152,152,152,152,152,152
15.3,IONIQ6,153,153,153,153,153,153,153,153,153,153,153,153,153
15.4,IONIQ6,154,154,154,154,154,154,154,154,154,154,154,154,154
15.5,IONIQ6,155,155,155,155,155,155,155,155,155,155,155,155,155
15.6,IONIQ6,156,156,156,156,156,156,156,156,156,156,156,156,156
15.7,IONIQ6,157,157,157,157,157,157,157,157,157,157,157,157,157
15.8,IONIQ6,158,158,158,158,158,158,158,158,158,158,158,158,158
15.9,IONIQ6,159,159,159,159,159,159,159,159,159,159,159,159,159
16,IONIQ6,160,160,160,160,160,160,160,160,160,160,160,160,160
16.1,IONIQ6,161,161,161,161,161,161,161,161,161,161,161,161,161
16.2,IONIQ6,162,162,162,162,162,162,162,162,162,162,162,162,162
16.3,IONIQ6,163,163,163,163,163,163,163,163,163,163,163,163,163
16.4,IONIQ6,164,164,164,164,164,164,164,164,164,164,164,164,164
16.5,IONIQ6,165,165,165,165,165,165,165,165,165,165,165,165,165
16.6,IONIQ6,166,166,166,166,166,166,166,166,166,166,166,166,166
16.7,IONIQ6,167,167,167,167,167,167,167,167,167,167,167,167,167
16.8,IONIQ6,168,168,168,168,168,168,168,168,168,168,168,168,168
16.9,IONIQ6,169,169,169,169,169,169,169,169,169,169,169,169,169
17,IONIQ6,170,170,170,170,170,170,170,170,170,170,170,170,170
17.1,IONIQ6,171,171,171,171,171,171,171,171,171,171,171,171,171
17.2,IONIQ6,172,172,172,172,172,172,172,172,172,172,172,172,172
17.3,IONIQ6,173,173,173,173,173,173,173,173,173,173,173,173,173
17.4,IONIQ6,174,174,174,174,174,174,174,174,174,174,174,174,174
17.5,IONIQ6,175,175,175,175,175,175,175,175,175,175,175,175,175
17.6,IONIQ6,176,176,176,176,176,176,176,176,176,176,176,176,176
17.7,IONIQ6,177,177,177,177,177,177,177,177,177,177,177,177,177
17.8,IONIQ6,178,178,178,178,178,178,178,178,178,178,178,178,178
17.9,IONIQ6,179,179,179,179,179,179,179,179,179,179,179,179,179
18,IONIQ6,180,180,180,180,180,180,180,180,180,180,180,180,180
18.1,IONIQ6,181,181,181,181,181,181,181,181,181,181,181,181,181
18.2,IONIQ6,182,182,182,182,182,182,182,182,182,182,182,182,182
18.3,IONIQ6,183,183,183,183,183,183,183,183,183,183,183,183,183
18.4,IONIQ6,184,184,184,184,184,184,184,184,184,184,184,184,184
18.5,IONIQ6,185,185,185,185,185,185,185,185,185,185,185,185,185
18.6,IONIQ6,186,186,186,186,186,186,186,186,186,186,186,186,186
18.7,IONIQ6,187,187,187,187,187,187,187,187,187,187,187,187,187
18.8,IONIQ6,188,188,188,188,188,188,188,188,188,188,188,188,188
18.9,IONIQ6,189,189,189,189,189,189,189,189,189,189,189,189,189
19,IONIQ6,190,190,190,190,190,190,190,190,190,190,190,190,190
19.1,IONIQ6,191,191,191,191,191,191,191,191,191,191,191,191,191
19.2,IONIQ6,192,192,192,192,192,192,192,192,192,192,192,192,192
19.3,IONIQ6,193,193,193,193,193,193,193,193,193,193,193,193,193
19.4,IONIQ6,194,194,194,194,194,194,194,194,194,194,194,194,194
19.5,IONIQ6,195,195,195,195,195,195,195,195,195,195,195,195,195
19.6,IONIQ6,196,196,196,196,196,196,196,196,196,196,196,196,196
19.7,IONIQ6,197,197,197,197,197,197,197,197,197,197,197,197,197
19.8,IONIQ6,198,198,198,198,198,198,198,198,198,198,198,198,198
19.9,IONIQ6,199,199,199,199,199,199,199,199,199,199,199,199,199
20,IONIQ6,200,200,200,200,200,200,200,200,200,200,200,200,200
20.1,IONIQ6,201,201,201,201,201,201,201,201,201,201,201,201,201
20.2,IONIQ6,202,202,202,202,202,202,202,202,202,202,202,202,202
20.3,IONIQ6,203,203,203,203,203,203,203,203,203,203,203,203,203
20.4,IONIQ6,204,204,204,204,204,204,204,204,204,204,204,204,204
20.5,IONIQ6,205,205,205,205,205,205,205,205,205,205,205,205,205
20.6,IONIQ6,206,206,206,206,206,206,206,206,206,206,206,206,206
20.7,IONIQ6,207,207,207,207,207,207,207,207,207,207,207,207,207
20.8,IONIQ6,208,208,208,208,208,208,208,208,208,208,208,208,208
20.9,IONIQ6,209,209,209,209,209,209,209,209,209,209,209,209,209
21,IONIQ6,210,210,210,210,210,210,210,210,210,210,210,210,210
21.1,IONIQ6,211,211,211,211,211,211,211,211,211,211,211,211,211
21.2,IONIQ6,212,212,212,212,212,212,212,212,212,212,212,212,212
21.3,IONIQ6,213,213,213,213,213,213,213,213,213,213,213,213,213
21.4,IONIQ6,214,214,214,214,214,214,214,214,214,214,214,214,214
21.5,IONIQ6,215,215,215,215,215,215,215,215,215,215,215,215,215
21.6,IONIQ6,216,216,216,216,216,216,216,216,216,216,216,216,216
21.7,IONIQ6,217,217,217,217,217,217,217,217,217,217,217,217,217
21.8,IONIQ6,218,218,218,218,218,218,218,218,218,218,218,218,218
21.9,IONIQ6,219,219,219,219,219,219,219,219,219,219,219,219,219
22,IONIQ6,220,220,220,220,220,220,220,220,220,220,220,220,220
22.1,IONIQ6,221,221,221,221,221,221,221,221,221,221,221,221,221
22.2,IONIQ6,222,222,222,222,222,222,222,222,222,222,222,222,222
22.3,IONIQ6,223,223,223,223,223,223,223,223,223,223,223,223,223
22.4,IONIQ6,224,224,224,224,224,224,224,224,224,224,224,224,224
22.5,IONIQ6,225,225,225,225,225,225,225,225,225,225,225,225,225
22.6,IONIQ6,226,226,226,226,226,226,226,226,226,226,226,226,226
22.7,IONIQ6,227,227,227,227,227,227,227,227,227,227,227,227,227
22.8,IONIQ6,228,228,228,228,228,228,228,228,228,228,228,228,228
22.9,IONIQ6,229,229,229,229,229,229,229,229,229,229,229,229,229
23,IONIQ6,230,230,230,230,230,230,230,230,230,230,230,230,230
23.1,IONIQ6,231,231,231,231,231,231,231,231,231,231,231,231,231
23.2,IONIQ6,232,232,232,232,232,232,232,232,232,232,232,232,232
23.3,IONIQ6,233,233,233,233,233,233,233,233,233,233,233,233,233
23.4,IONIQ6,234,234,234,234,234,234,234,234,234,234,234,234,234
23.5,IONIQ6,235,235,235,235,235,235,235,235,235,235,235,235,235
23.6,IONIQ6,236,236,236,236,236,236,236,236,236,236,236,236,236
23.7,IONIQ6,237,237,237,237,237,237,237,237,237,237,237,237,237
23.8,IONIQ6,238,238,238,238,238,238,238,238,238,238,238,238,238
23.9,IONIQ6,239,239,239,239,239,239,239,239,239,239,239,239,239
24,IONIQ6,240,240,240,240,240,240,240,240,240,240,240,240,240
24.1,IONIQ6,241,241,241,241,241,241,241,241,241,241,241,241,241
24.2,IONIQ6,242,242,242,242,242,242,242,242,242,242,242,242,242
24.3,IONIQ6,243,243,243,243,243,243,243,243,243,243,243,243,243
24.4,IONIQ6,244,244,244,244,244,244,244,244,244,244,244,244,244
24.5,IONIQ6,245,245,245,245,245,245,245,245,245,245,245,245,245
24.6,IONIQ6,246,246,246,246,246,246,246,246,246,246,246,246,246
24.7,IONIQ6,247,247,247,247,247,247,247,247,247,247,247,247,247
24.8,IONIQ6,248,248,248,248,248,248,248,248,248,248,248,248,248
24.9,IONIQ6,249,249,249,249,249,249,249,249,249,249,249,249,249
25,IONIQ6,250,250,250,250,250,250,250,250,250,250,250,250,250
25.1,IONIQ6,251,251,251,251,251,251,251,251,251,251,251,251,251
25.2,IONIQ6,252,252,252,252,252,252,252,252,252,252,252,252,252
25.3,IONIQ6,253,253,253,253,253,253,253,253,253,253,253,253,253
25.4,IONIQ6,254,254,254,254,254,254,254,254,254,254,254,254,254
25.5,IONIQ6,255,255,255,255,255,255,255,255,255,255,255,255,255
25.6,IONIQ6,256,256,256,256,256,256,256,256,256,256,256,256,256
25.7,IONIQ6,257,257,257,257,257,257,257,257,257,257,257,257,257
25.8,IONIQ6,258,258,258,258,258,258,258,258,258,258,258,258,258
25.9,IONIQ6,259,259,259,259,259,259,259,259,259,259,259,259,259
26,IONIQ6,260,260,260,260,260,260,260,260,260,260,260,260,260
26.1,IONIQ6,261,261,261,261,261,261,261,261,261,261,261,261,261
26.2,IONIQ6,262,262,262,262,262,262,262,262,262,262,262,262,262
26.3,IONIQ6,263,263,263,263,263,263,263,263,263,263,263,263,263
26.4,IONIQ6,264,264,264,264,264,264,264,264,264,264,264,264,264
26.5,IONIQ6,265,265,265,265,265,265,265,265,265,265,265,265,265
26.6,IONIQ6,266,266,266,266,266,266,266,266,266,266,266,266,266
26.7,IONIQ6,267,267,267,267,267,267,267,267,267,267,267,267,267
26.8,IONIQ6,268,268,268,268,268,268,268,268,268,268,268,268,268
26.9,IONIQ6,269,269,269,269,269,269,269,269,269,269,269,269,269
27,IONIQ6,270,270,270,270,270,270,270,270,270,270,270,270,270
27.1,IONIQ6,271,271,271,271,271,271,271,271,271,271,271,271,271
27.2,IONIQ6,272,272,272,272,272,272,272,272,272,272,272,272,272
27.3,IONIQ6,273,273,273,273,273,273,273,273,273,273,273,273,273
27.4,IONIQ6,274,274,274,274,274,274,274,274,274,274,274,274,274
27.5,IONIQ6,275,275,275,275,275,275,275,275,275,275,275,275,275
27.6,IONIQ6,276,276,276,276,276,276,276,276,276,276,276,276,276
27.7,IONIQ6,277,277,277,277,277,277,277,277,277,277,277,277,277
27.8,IONIQ6,278,278,278,278,278,278,278,278,278,278,278,278,278
27.9,IONIQ6,279,279,279,279,279,279,279,279,279,279,279,279,279
28,IONIQ6,280,280,280,280,280,280,280,280,280,280,280,280,280
28.1,IONIQ6,281,281,281,281,281,281,281,281,281,281,281,281,281
28.2,IONIQ6,282,282,282,282,282,282,282,282,282,282,282,282,282
28.3,IONIQ6,283,283,283,283,283,283,283,283,283,283,283,283,283
28.4,IONIQ6,284,284,284,284,284,284,284,284,284,284,284,284,284
28.5,IONIQ6,285,285,285,285,285,285,285,285,285,285,285,285,285
28.6,IONIQ6,286,286,286,286,286,286,286,286,286,286,286,286,286
28.7,IONIQ6,287,287,287,287,287,287,287,287,287,287,287,287,287
28.8,IONIQ6,288,288,288,288,288,288,288,288,288,288,288,288,288
28.9,IONIQ6,289,289,289,289,289,289,289,289,289,289,289,289,289
29,IONIQ6,290,290,290,290,290,290,290,290,290,290,290,290,290
29.1,IONIQ6,291,291,291,291,291,291,291,291,291,291,291,291,291
29.2,IONIQ6,292,292,292,292,292,292,292,292,292,292,292,292,292
29.3,IONIQ6,293,293,293,293,293,293,293,293,293,293,293,293,293
29.4,IONIQ6,294,294,294,294,294,294,294,294,294,294,294,294,294
29.5,IONIQ6,295,295,295,295,295,295,295,295,295,295,295,295,295
29.6,IONIQ6,296,296,296,296,296,296,296,296,296,296,296,296,296
29.7,IONIQ6,297,297,297,297,297,297,297,297,297,297,297,297,297
29.8,IONIQ6,298,298,298,298,298,298,298,298,298,298,298,298,298
29.9,IONIQ6,299,299,299,299,299,299,299,299,299,299,299,299,299
30,IONIQ6,300,300,300,300,300,300,300,300,300,300,300,300,300
30.1,IONIQ6,301,301,301,301,301,301,301,301,301,301,301,301,301
30.2,IONIQ6,302,302,302,302,302,302,302,302,302,302,302,302,302
30.3,IONIQ6,303,303,303,303,303,303,303,303,303,303,303,303,303
30.4,IONIQ6,304,304,304,304,304,304,304,304,304,304,304,304,304
30.5,IONIQ6,305,305,305,305,305,305,305,305,305,305,305,305,305
30.6,IONIQ6,306,306,306,306,306,306,306,306,306,306,306,306,306
30.7,IONIQ6,307,307,307,307,307,307,307,307,307,307,307,307,307
30.8,IONIQ6,308,308,308,308,308,308,308,308,308,308,308,308,308
30.9,IONIQ6,309,309,309,309,309,309,309,309,309,309,309,309,309
31,IONIQ6,310,310,310,310,310,310,310,310,310,310,310,310,310
31.1,IONIQ6,311,311,311,311,311,311,311,311,311,311,311,311,311
31.2,IONIQ6,312,312,312,312,312,312,312,312,312,312,312,312,312
31.3,IONIQ6,313,313,313,313,313,313,313,313,313,313,313,313,313
31.4,IONIQ6,314,314,314,314,314,314,314,314,314,314,314,314,314
31.5,IONIQ6,315,315,315,315,315,315,315,315,315,315,315,315,315
31.6,IONIQ6,316,316,316,316,316,316,316,316,316,316,316,316,316
31.7,IONIQ6,317,317,317,317,317,317,317,317,317,317,317,317,317
31.8,IONIQ6,318,318,318,318,318,318,318,318,318,318,318,318,318
31.9,IONIQ6,319,319,319,319,319,319,319,319,319,319,319,319,319
32,IONIQ6,320,320,320,320,320,320,320,320,320,320,320,320,320
32.1,IONIQ6,321,321,321,321,321,321,321,321,321,321,321,321,321
32.2,IONIQ6,322,322,322,322,322,322,322,322,322,322,322,322,322
32.3,IONIQ6,323,323,323,323,323,323,323,323,323,323,323,323,323
32.4,IONIQ6,324,324,324,324,324,324,324,324,324,324,324,324,324
32.5,IONIQ6,325,325,325,325,325,325,325,325,325,325,325,325,325
32.6,IONIQ6,326,326,326,326,326,326,326,326,326,326,326,326,326
32.7,IONIQ6,327,327,327,327,327,327,327,327,327,327,327,327,327
32.8,IONIQ6,328,328,328,328,328,328,328,328,328,328,328,328,328
32.9,IONIQ6,329,329,329,329,329,329,329,329,329,329,329,329,329
33,IONIQ6,330,330,330,330,330,330,330,330,330,330,330,330,330
33.1,IONIQ6,331,331,331,331,331,331,331,331,331,331,331,331,331
33.2,IONIQ6,332,332,332,332,332,332,332,332,332,332,332,332,332
33.3,IONIQ6,333,333,333,333,333,333,333,333,333,333,333,333,333
33.4,IONIQ6,334,334,334,334,334,334,334,334,334,334,334,334,334
33.5,IONIQ6,335,335,335,335,335,335,335,335,335,335,335,335,335
33.6,IONIQ6,336,336,336,336,336,336,336,336,336,336,336,336,336
33.7,IONIQ6,337,337,337,337,337,337,337,337,337,337,337,337,337
33.8,IONIQ6,338,338,338,338,338,338,338,338,338,338,338,338,338
33.9,IONIQ6,339,339,339,339,339,339,339,339,339,339,339,339,339
34,IONIQ6,340,340,340,340,340,340,340,340,340,340,340,340,340
34.1,IONIQ6,341,341,341,341,341,341,341,341,341,341,341,341,341
34.2,IONIQ6,342,342,342,342,342,342,342,342,342,342,342,342,342
34.3,IONIQ6,343,343,343,343,343,343,343,343,343,343,343,343,343
34.4,IONIQ6,344,344,344,344,344,344,344,344,344,344,344,344,344
34.5,IONIQ6,345,345,345,345,345,345,345,345,345,345,345,345,345
34.6,IONIQ6,346,346,346,346,346,346,346,346,346,346,346,346,346
34.7,IONIQ6,347,347,347,347,347,347,347,347,347,347,347,347,347
34.8,IONIQ6,348,348,348,348,348,348,348,348,348,348,348,348,348
34.9,IONIQ6,349,349,349,349,349,349,349,349,349,349,349,349,349
35,IONIQ6,350,350,350,350,350,350,350,350,350,350,350,350,350
35.1,IONIQ6,351,351,351,351,351,351,351,351,351,351,351,351,351
35.2,IONIQ6,352,352,352,352,352,352,352,352,352,352,352,352,352
35.3,IONIQ6,353,353,353,353,353,353,353,353,353,353,353,353,353
35.4,IONIQ6,354,354,354,354,354,354,354,354,354,354,354,354,354
35.5,IONIQ6,355,355,355,355,355,355,355,355,355,355,355,355,355
35.6,IONIQ6,356,356,356,356,356,356,356,356,356,356,356,356,356
35.7,IONIQ6,357,357,357,357,357,357,357,357,357,357,357,357,357
35.8,IONIQ6,358,358,358,358,358,358,358,358,358,358,358,358,358
35.9,IONIQ6,359,359,359,359,359,359,359,359,359,359,359,359,359
36,IONIQ6,360,360,360,360,360,360,360,360,360,360,360,360,360
36.1,IONIQ6,361,361,361,361,361,361,361,361,361,361,361,361,361
36.2,IONIQ6,362,362,362,362,362,362,362,362,362,362,362,362,362
36.3,IONIQ6,363,363,363,363,363,363,363,363,363,363,363,363,363
36.4,IONIQ6,364,364,364,364,364,364,364,364,364,364,364,364,364
36.5,IONIQ6,365,365,365,365,365,365,365,365,365,365,365,365,365
36.6,IONIQ6,366,366,366,366,366,366,366,366,366,366,366,366,366
36.7,IONIQ6,367,367,367,367,367,367,367,367,367,367,367,367,367
36.8,IONIQ6,368,368,368,368,368,368,368,368,368,368,368,368,368
36.9,IONIQ6,369,369,369,369,369,369,369,369,369,369,369,369,369
37,IONIQ6,370,370,370,370,370,370,370,370,370,370,370,370,370
37.1,IONIQ6,371,371,371,371,371,371,371,371,371,371,371,371,371
37.2,IONIQ6,372,372,372,372,372,372,372,372,372,372,372,372,372
37.3,IONIQ6,373,373,373,373,373,373,373,373,373,373,373,373,373
37.4,IONIQ6,374,374,374,374,374,374,374,374,374,374,374,374,374
37.5,IONIQ6,375,375,375,375,375,375,375,375,375,375,375,375,375
37.6,IONIQ6,376,376,376,376,376,376,376,376,376,376,376,376,376
37.7,IONIQ6,377,377,377,377,377,377,377,377,377,377,377,377,377
37.8,IONIQ6,378,378,378,378,378,378,378,378,378,378,378,378,378
37.9,IONIQ6,379,379,379,379,379,379,379,379,379,379,379,379,379
38,IONIQ6,380,380,380,380,380,380,380,380,380,380,380,380,380
38.1,IONIQ6,381,381,381,381,381,381,381,381,381,381,381,381,381
38.2,IONIQ6,382,382,382,382,382,382,382,382,382,382,382,382,382
38.3,IONIQ6,383,383,383,383,383,383,383,383,383,383,383,383,383
38.4,IONIQ6,384,384,384,384,384,384,384,384,384,384,384,384,384
38.5,IONIQ6,385,385,385,385,385,385,385,385,385,385,385,385,385
38.6,IONIQ6,386,386,386,386,386,386,386,386,386,386,386,386,386
38.7,IONIQ6,387,387,387,387,387,387,387,387,387,387,387,387,387
38.8,IONIQ6,388,388,388,388,388,388,388,388,388,388,388,388,388
38.9,IONIQ6,389,389,389,389,389,389,389,389,389,389,389,389,389
39,IONIQ6,390,390,390,390,390,390,390,390,390,390,390,390,390
39.1,IONIQ6,391,391,391,391,391,391,391,391,391,391,391,391,391
39.2,IONIQ6,392,392,392,392,392,392,392,392,392,392,392,392,392
39.3,IONIQ6,393,393,393,393,393,393,393,393,393,393,393,393,393
39.4,IONIQ6,394,394,394,394,394,394,394,394,394,394,394,394,394
39.5,IONIQ6,395,395,395,395,395,395,395,395,395,395,395,395,395
39.6,IONIQ6,396,396,396,396,396,396,396,396,396,396,396,396,396
39.7,IONIQ6,397,397,397,397,397,397,397,397,397,397,397,397,397
39.8,IONIQ6,398,398,398,398,398,398,398,398,398,398,398,398,398
39.9,IONIQ6,399,399,399,399,399,399,399,399,399,399,399,399,399
40,IONIQ6,400,400,400,400,400,400,400,400,400,400,400,400,400
40.1,IONIQ6,401,401,401,401,401,401,401,401,401,401,401,401,401
40.2,IONIQ6,402,402,402,402,402,402,402,402,402,402,402,402,402
40.3,IONIQ6,403,403,403,403,403,403,403,403,403,403,403,403,403
40.4,IONIQ6,404,404,404,404,404,404,404,404,404,404,404,404,404
40.5,IONIQ6,405,405,405,405,405,405,405,405,405,405,405,405,405
40.6,IONIQ6,406,406,406,406,406,406,406,406,406,406,406,406,406
40.7,IONIQ6,407,407,407,407,407,407,407,407,407,407,407,407,407
40.8,IONIQ6,408,408,408,408,408,408,408,408,408,408,408,408,408
40.9,IONIQ6,409,409,409,409,409,409,409,409,409,409,409,409,409
41,IONIQ6,410,410,410,410,410,410,410,410,410,410,410,410,410
41.1,IONIQ6,411,411,411,411,411,411,411,411,411,411,411,411,411
41.2,IONIQ6,412,412,412,412,412,412,412,412,412,412,412,412,412
41.3,IONIQ6,413,413,413,413,413,413,413,413,413,413,413,413,413
41.4,IONIQ6,414,414,414,414,414,414,414,414,414,414,414,414,414
41.5,IONIQ6,415,415,415,415,415,415,415,415,415,415,415,415,415
41.6,IONIQ6,416,416,416,416,416,416,416,416,416,416,416,416,416
41.7,IONIQ6,417,417,417,417,417,417,417,417,417,417,417,417,417
41.8,IONIQ6,418,418,418,418,418,418,418,418,418,418,418,418,418
41.9,IONIQ6,419,419,419,419,419,419,419,419,419,419,419,419,419
42,IONIQ6,420,420,420,420,420,420,420,420,420,420,420,420,420
42.1,IONIQ6,421,421,421,421,421,421,421,421,421,421,421,421,421
42.2,IONIQ6,422,422,422,422,422,422,422,422,422,422,422,422,422
42.3,IONIQ6,423,423,423,423,423,423,423,423,423,423,423,423,423
42.4,IONIQ6,424,424,424,424,424,424,424,424,424,424,424,424,424
42.5,IONIQ6,425,425,425,425,425,425,425,425,425,425,425,425,425
42.6,IONIQ6,426,426,426,426,426,426,426,426,426,426,426,426,426
42.7,IONIQ6,427,427,427,427,427,427,427,427,427,427,427,427,427
42.8,IONIQ6,428,428,428,428,428,428,428,428,428,428,428,428,428
42.9,IONIQ6,429,429,429,429,429,429,429,429,429,429,429,429,429
43,IONIQ6,430,430,430,430,430,430,430,430,430,430,430,430,430
43.1,IONIQ6,431,431,431,431,431,431,431,431,431,431,431,431,431
43.2,IONIQ6,432,432,432,432,432,432,432,432,432,432,432,432,432
43.3,IONIQ6,433,433,433,433,433,433,433,433,433,433,433,433,433
43.4,IONIQ6,434,434,434,434,434,434,434,434,434,434,434,434,434
43.5,IONIQ6,435,435,435,435,435,435,435,435,435,435,435,435,435
43.6,IONIQ6,436,436,436,436,436,436,436,436,436,436,436,436,436
43.7,IONIQ6,437,437,437,437,437,437,437,437,437,437,437,437,437
43.8,IONIQ6,438,438,438,438,438,438,438,438,438,438,438,438,438
43.9,IONIQ6,439,439,439,439,439,439,439,439,439,439,439,439,439
44,IONIQ6,440,440,440,440,440,440,440,440,440,440,440,440,440
44.1,IONIQ6,441,441,441,441,441,441,441,441,441,441,441,441,441
44.2,IONIQ6,442,442,442,442,442,442,442,442,442,442,442,442,442
44.3,IONIQ6,443,443,443,443,443,443,443,443,443,443,443,443,443
44.4,IONIQ6,444,444,444,444,444,444,444,444,444,444,444,444,444
44.5,IONIQ6,445,445,445,445,445,445,445,445,445,445,445,445,445
44.6,IONIQ6,446,446,446,446,446,446,446,446,446,446,446,446,446
44.7,IONIQ6,447,447,447,447,447,447,447,447,447,447,447,447,447
44.8,IONIQ6,448,448,448,448,448,448,448,448,448,448,448,448,448
44.9,IONIQ6,449,449,449,449,449,449,449,449,449,449,449,449,449
45,IONIQ6,450,450,450,450,450,450,450,450,450,450,450,450,450
45.1,IONIQ6,451,451,451,451,451,451,451,451,451,451,451,451,451
45.2,IONIQ6,452,452,452,452,452,452,452,452,452,452,452,452,452
45.3,IONIQ6,453,453,453,453,453,453,453,453,453,453,453,453,453
45.4,IONIQ6,454,454,454,454,454,454,454,454,454,454,454,454,454
45.5,IONIQ6,455,455,455,455,455,455,455,455,455,455,455,455,455
45.6,IONIQ6,456,456,456,456,456,456,456,456,456,456,456,456,456
45.7,IONIQ6,457,457,457,457,457,457,457,457,457,457,457,457,457
45.8,IONIQ6,458,458,458,458,458,458,458,458,458,458,458,458,458
45.9,IONIQ6,459,459,459,459,459,459,459,459,459,459,459,459,459
46,IONIQ6,460,460,460,460,460,460,460,460,460,460,460,460,460
46.1,IONIQ6,461,461,461,461,461,461,461,461,461,461,461,461,461
46.2,IONIQ6,462,462,462,462,462,462,462,462,462,462,462,462,462
46.3,IONIQ6,463,463,463,463,463,463,463,463,463,463,463,463,463
46.4,IONIQ6,464,464,464,464,464,464,464,464,464,464,464,464,464
46.5,IONIQ6,465,465,465,465,465,465,465,465,465,465,465,465,465
46.6,IONIQ6,466,466,466,466,466,466,466,466,466,466,466,466,466
46.7,IONIQ6,467,467,467,467,467,467,467,467,467,467,467,467,467
46.8,IONIQ6,468,468,468,468,468,468,468,468,468,468,468,468,468
46.9,IONIQ6,469,469,469,469,469,469,469,469,469,469,469,469,469
47,IONIQ6,470,470,470,470,470,470,470,470,470,470,470,470,470
47.1,IONIQ6,471,471,471,471,471,471,471,471,471,471,471,471,471
47.2,IONIQ6,472,472,472,472,472,472,472,472,472,472,472,472,472
47.3,IONIQ6,473,473,473,473,473,473,473,473,473,473,473,473,473
47.4,IONIQ6,474,474,474,474,474,474,474,474,474,474,474,474,474
47.5,IONIQ6,475,475,475,475,475,475,475,475,475,475,475,475,475
47.6,IONIQ6,476,476,476,476,476,476,476,476,476,476,476,476,476
47.7,IONIQ6,477,477,477,477,477,477,477,477,477,477,477,477,477
47.8,IONIQ6,478,478,478,478,478,478,478,478,478,478,478,478,478
47.9,IONIQ6,479,479,479,479,479,479,479,479,479,479,479,479,479
48,IONIQ6,480,480,480,480,480,480,480,480,480,480,480,480,480
48.1,IONIQ6,481,481,481,481,481,481,481,481,481,481,481,481,481
48.2,IONIQ6,482,482,482,482,482,482,482,482,482,482,482,482,482
48.3,IONIQ6,483,483,483,483,483,483,483,483,483,483,483,483,483
48.4,IONIQ6,484,484,484,484,484,484,484,484,484,484,484,484,484
48.5,IONIQ6,485,485,485,485,485,485,485,485,485,485,485,485,485
48.6,IONIQ6,486,486,486,486,486,486,486,486,486,486,486,486,486
48.7,IONIQ6,487,487,487,487,487,487,487,487,487,487,487,487,487
48.8,IONIQ6,488,488,488,488,488,488,488,488,488,488,488,488,488
48.9,IONIQ6,489,489,489,489,489,489,489,489,489,489,489,489,489
49,IONIQ6,490,490,490,490,490,490,490,490,490,490,490,490,490
49.1,IONIQ6,491,491,491,491,491,491,491,491,491,491,491,491,491
49.2,IONIQ6,492,492,492,492,492,492,492,492,492,492,492,492,492
49.3,IONIQ6,493,493,493,493,493,493,493,493,493,493,493,493,493
49.4,IONIQ6,494,494,494,494,494,494,494,494,494,494,494,494,494
49.5,IONIQ6,495,495,495,495,495,495,495,495,495,495,495,495,495
49.6,IONIQ6,496,496,496,496,496,496,496,496,496,496,496,496,496
49.7,IONIQ6,497,497,497,497,497,497,497,497,497,497,497,497,497
49.8,IONIQ6,498,498,498,498,498,498,498,498,498,498,498,498,498
49.9,IONIQ6,499,499,499,499,499,499,499,499,499,499,499,499,499
50,IONIQ6,500,500,500,500,500,500,500,500,500,500,500,500,500
50.1,IONIQ6,501,501,501,501,501,501,501,501,501,501,501,501,501
50.2,IONIQ6,502,502,502,502,502,502,502,502,502,502,502,502,502
50.3,IONIQ6,503,503,503,503,503,503,503,503,503,503,503,503,503
50.4,IONIQ6,504,504,504,504,504,504,504,504,504,504,504,504,504
50.5,IONIQ6,505,505,505,505,505,505,505,505,505,505,505,505,505
50.6,IONIQ6,506,506,506,506,506,506,506,506,506,506,506,506,506
50.7,IONIQ6,507,507,507,507,507,507,507,507,507,507,507,507,507
50.8,IONIQ6,508,508,508,508,508,508,508,508,508,508,508,508,508
50.9,IONIQ6,509,509,509,509,509,509,509,509,509,509,509,509,509
51,IONIQ6,510,510,510,510,510,510,510,510,510,510,510,510,510
51.1,IONIQ6,511,511,511,511,511,511,511,511,511,511,511,511,511
51.2,IONIQ6,512,512,512,512,512,512,512,512,512,512,512,512,512
51.3,IONIQ6,513,513,513,513,513,513,513,513,513,513,513,513,513
51.4,IONIQ6,514,514,514,514,514,514,514,514,514,514,514,514,514
51.5,IONIQ6,515,515,515,515,515,515,515,515,515,515,515,515,515
51.6,IONIQ6,516,516,516,516,516,516,516,516,516,516,516,516,516
51.7,IONIQ6,517,517,517,517,517,517,517,517,517,517,517,517,517
51.8,IONIQ6,518,518,518,518,518,518,518,518,518,518,518,518,518
51.9,IONIQ6,519,519,519,519,519,519,519,519,519,519,519,519,519
52,IONIQ6,520,520,520,520,520,520,520,520,520,520,520,520,520
52.1,IONIQ6,521,521,521,521,521,521,521,521,521,521,521,521,521
52.2,IONIQ6,522,522,522,522,522,522,522,522,522,522,522,522,522
52.3,IONIQ6,523,523,523,523,523,523,523,523,523,523,523,523,523
52.4,IONIQ6,524,524,524,524,524,524,524,524,524,524,524,524,524
52.5,IONIQ6,525,525,525,525,525,525,525,525,525,525,525,525,525
52.6,IONIQ6,526,526,526,526,526,526,526,526,526,526,526,526,526
52.7,IONIQ6,527,527,527,527,527,527,527,527,527,527,527,527,527
52.8,IONIQ6,528,528,528,528,528,528,528,528,528,528,528,528,528
52.9,IONIQ6,529,529,529,529,529,529,529,529,529,529,529,529,529
53,IONIQ6,530,530,530,530,530,530,530,530,530,530,530,530,530
53.1,IONIQ6,531,531,531,531,531,531,531,531,531,531,531,531,531
53.2,IONIQ6,532,532,532,532,532,532,532,532,532,532,532,532,532
53.3,IONIQ6,533,533,533,533,533,533,533,533,533,533,533,533,533
53.4,IONIQ6,534,534,534,534,534,534,534,534,534,534,534,534,534
53.5,IONIQ6,535,535,535,535,535,535,535,535,535,535,535,535,535
53.6,IONIQ6,536,536,536,536,536,536,536,536,536,536,536,536,536
53.7,IONIQ6,537,537,537,537,537,537,537,537,537,537,537,537,537
53.8,IONIQ6,538,538,538,538,538,538,538,538,538,538,538,538,538
53.9,IONIQ6,539,539,539,539,539,539,539,539,539,539,539,539,539
54,IONIQ6,540,540,540,540,540,540,540,540,540,540,540,540,540
54.1,IONIQ6,541,541,541,541,541,541,541,541,541,541,541,541,541
54.2,IONIQ6,542,542,542,542,542,542,542,542,542,542,542,542,542
54.3,IONIQ6,543,543,543,543,543,543,543,543,543,543,543,543,543
54.4,IONIQ6,544,544,544,544,544,544,544,544,544,544,544,544,544
54.5,IONIQ6,545,545,545,545,545,545,545,545,545,545,545,545,545
54.6,IONIQ6,546,546,546,546,546,546,546,546,546,546,546,546,546
54.7,IONIQ6,547,547,547,547,547,547,547,547,547,547,547,547,547
54.8,IONIQ6,548,548,548,548,548,548,548,548,548,548,548,548,548
54.9,IONIQ6,549,549,549,549,549,549,549,549,549,549,549,549,549
55,IONIQ6,550,550,550,550,550,550,550,550,550,550,550,550,550
55.1,IONIQ6,551,551,551,551,551,551,551,551,551,551,551,551,551
55.2,IONIQ6,552,552,552,552,552,552,552,552,552,552,552,552,552
55.3,IONIQ6,553,553,553,553,553,553,553,553,553,553,553,553,553
55.4,IONIQ6,554,554,554,554,554,554,554,554,554,554,554,554,554
55.5,IONIQ6,555,555,555,555,555,555,555,555,555,555,555,555,555
55.6,IONIQ6,556,556,556,556,556,556,556,556,556,556,556,556,556
55.7,IONIQ6,557,557,557,557,557,557,557,557,557,557,557,557,557
55.8,IONIQ6,558,558,558,558,558,558,558,558,558,558,558,558,558
55.9,IONIQ6,559,559,559,559,559,559,559,559,559,559,559,559,559
56,IONIQ6,560,560,560,560,560,560,560,560,560,560,560,560,560
56.1,IONIQ6,561,561,561,561,561,561,561,561,561,561,561,561,561
56.2,IONIQ6,562,562,562,562,562,562,562,562,562,562,562,562,562
56.3,IONIQ6,563,563,563,563,563,563,563,563,563,563,563,563,563
56.4,IONIQ6,564,564,564,564,564,564,564,564,564,564,564,564,564
56.5,IONIQ6,565,565,565,565,565,565,565,565,565,565,565,565,565
56.6,IONIQ6,566,566,566,566,566,566,566,566,566,566,566,566,566
56.7,IONIQ6,567,567,567,567,567,567,567,567,567,567,567,567,567
56.8,IONIQ6,568,568,568,568,568,568,568,568,568,568,568,568,568
56.9,IONIQ6,569,569,569,569,569,569,569,569,569,569,569,569,569
57,IONIQ6,570,570,570,570,570,570,570,570,570,570,570,570,570
57.1,IONIQ6,571,571,571,571,571,571,571,571,571,571,571,571,571
57.2,IONIQ6,572,572,572,572,572,572,572,572,572,572,572,572,572
57.3,IONIQ6,573,573,573,573,573,573,573,573,573,573,573,573,573
57.4,IONIQ6,574,574,574,574,574,574,574,574,574,574,574,574,574
57.5,IONIQ6,575,575,575,575,575,575,575,575,575,575,575,575,575
57.6,IONIQ6,576,576,576,576,576,576,576,576,576,576,576,576,576
57.7,IONIQ6,577,577,577,577,577,577,577,577,577,577,577,577,577
57.8,IONIQ6,578,578,578,578,578,578,578,578,578,578,578,578,578
57.9,IONIQ6,579,579,579,579,579,579,579,579,579,579,579,579,579
58,IONIQ6,580,580,580,580,580,580,580,580,580,580,580,580,580
58.1,IONIQ6,581,581,581,581,581,581,581,581,581,581,581,581,581
58.2,IONIQ6,582,582,582,582,582,582,582,582,582,582,582,582,582
58.3,IONIQ6,583,583,583,583,583,583,583,583,583,583,583,583,583
58.4,IONIQ6,584,584,584,584,584,584,584,584,584,584,584,584,584
58.5,IONIQ6,585,585,585,585,585,585,585,585,585,585,585,585,585
58.6,IONIQ6,586,586,586,586,586,586,586,586,586,586,586,586,586
58.7,IONIQ6,587,587,587,587,587,587,587,587,587,587,587,587,587
58.8,IONIQ6,588,588,588,588,588,588,588,588,588,588,588,588,588
58.9,IONIQ6,589,589,589,589,589,589,589,589,589,589,589,589,589
59,IONIQ6,590,590,590,590,590,590,590,590,590,590,590,590,590
59.1,IONIQ6,591,591,591,591,591,591,591,591,591,591,591,591,591
59.2,IONIQ6,592,592,592,592,592,592,592,592,592,592,592,592,592
59.3,IONIQ6,593,593,593,593,593,593,593,593,593,593,593,593,593
59.4,IONIQ6,594,594,594,594,594,594,594,594,594,594,594,594,594
59.5,IONIQ6,595,595,595,595,595,595,595,595,595,595,595,595,595
59.6,IONIQ6,596,596,596,596,596,596,596,596,596,596,596,596,596
59.7,IONIQ6,597,597,597,597,597,597,597,597,597,597,597,597,597
59.8,IONIQ6,598,598,598,598,598,598,598,598,598,598,598,598,598
59.9,IONIQ6,599,599,599,599,599,599,599,599,599,599,599,599,599
60,IONIQ6,600,600,600,600,600,600,600,600,600,600,600,600,600
60.1,IONIQ6,601,601,601,601,601,601,601,601,601,601,601,601,601
60.2,IONIQ6,602,602,602,602,602,602,602,602,602,602,602,602,602
60.3,IONIQ6,603,603,603,603,603,603,603,603,603,603,603,603,603
60.4,IONIQ6,604,604,604,604,604,604,604,604,604,604,604,604,604
60.5,IONIQ6,605,605,605,605,605,605,605,605,605,605,605,605,605
60.6,IONIQ6,606,606,606,606,606,606,606,606,606,606,606,606,606
60.7,IONIQ6,607,607,607,607,607,607,607,607,607,607,607,607,607
60.8,IONIQ6,608,608,608,608,608,608,608,608,608,608,608,608,608
60.9,IONIQ6,609,609,609,609,609,609,609,609,609,609,609,609,609
61,IONIQ6,610,610,610,610,610,610,610,610,610,610,610,610,610
61.1,IONIQ6,611,611,611,611,611,611,611,611,611,611,611,611,611
61.2,IONIQ6,612,612,612,612,612,612,612,612,612,612,612,612,612
61.3,IONIQ6,613,613,613,613,613,613,613,613,613,613,613,613,613
61.4,IONIQ6,614,614,614,614,614,614,614,614,614,614,614,614,614
61.5,IONIQ6,615,615,615,615,615,615,615,615,615,615,615,615,615
61.6,IONIQ6,616,616,616,616,616,616,616,616,616,616,616,616,616
61.7,IONIQ6,617,617,617,617,617,617,617,617,617,617,617,617,617
61.8,IONIQ6,618,618,618,618,618,618,618,618,618,618,618,618,618
61.9,IONIQ6,619,619,619,619,619,619,619,619,619,619,619,619,619
62,IONIQ6,620,620,620,620,620,620,620,620,620,620,620,620,620
62.1,IONIQ6,621,621,621,621,621,621,621,621,621,621,621,621,621
62.2,IONIQ6,622,622,622,622,622,622,622,622,622,622,622,622,622
62.3,IONIQ6,623,623,623,623,623,623,623,623,623,623,623,623,623
62.4,IONIQ6,624,624,624,624,624,624,624,624,624,624,624,624,624
62.5,IONIQ6,625,625,625,625,625,625,625,625,625,625,625,625,625
62.6,IONIQ6,626,626,626,626,626,626,626,626,626,626,626,626,626
62.7,IONIQ6,627,627,627,627,627,627,627,627,627,627,627,627,627
62.8,IONIQ6,628,628,628,628,628,628,628,628,628,628,628,628,628
62.9,IONIQ6,629,629,629,629,629,629,629,629,629,629,629,629,629
63,IONIQ6,630,630,630,630,630,630,630,630,630,630,630,630,630
63.1,IONIQ6,631,631,631,631,631,631,631,631,631,631,631,631,631
63.2,IONIQ6,632,632,632,632,632,632,632,632,632,632,632,632,632
63.3,IONIQ6,633,633,633,633,633,633,633,633,633,633,633,633,633
63.4,IONIQ6,634,634,634,634,634,634,634,634,634,634,634,634,634
63.5,IONIQ6,635,635,635,635,635,635,635,635,635,635,635,635,635
63.6,IONIQ6,636,636,636,636,636,636,636,636,636,636,636,636,636
63.7,IONIQ6,637,637,637,637,637,637,637,637,637,637,637,637,637
63.8,IONIQ6,638,638,638,638,638,638,638,638,638,638,638,638,638
63.9,IONIQ6,639,639,639,639,639,639,639,639,639,639,639,639,639
64,IONIQ6,640,640,640,640,640,640,640,640,640,640,640,640,640
64.1,IONIQ6,641,641,641,641,641,641,641,641,641,641,641,641,641
64.2,IONIQ6,642,642,642,642,642,642,642,642,642,642,642,642,642
64.3,IONIQ6,643,643,643,643,643,643,643,643,643,643,643,643,643
64.4,IONIQ6,644,644,644,644,644,644,644,644,644,644,644,644,644
64.5,IONIQ6,645,645,645,645,645,645,645,645,645,645,645,645,645
64.6,IONIQ6,646,646,646,646,646,646,646,646,646,646,646,646,646
64.7,IONIQ6,647,647,647,647,647,647,647,647,647,647,647,647,647
64.8,IONIQ6,648,648,648,648,648,648,648,648,648,648,648,648,648
64.9,IONIQ6,649,649,649,649,649,649,649,649,649,649,649,649,649
65,IONIQ6,650,650,650,650,650,650,650,650,650,650,650,650,650
65.1,IONIQ6,651,651,651,651,651,651,651,651,651,651,651,651,651
65.2,IONIQ6,652,652,652,652,652,652,652,652,652,652,652,652,652
65.3,IONIQ6,653,653,653,653,653,653,653,653,653,653,653,653,653
65.4,IONIQ6,654,654,654,654,654,654,654,654,654,654,654,654,654
65.5,IONIQ6,655,655,655,655,655,655,655,655,655,655,655,655,655
65.6,IONIQ6,656,656,656,656,656,656,656,656,656,656,656,656,656
65.7,IONIQ6,657,657,657,657,657,657,657,657,657,657,657,657,657
65.8,IONIQ6,658,658,658,658,658,658,658,658,658,658,658,658,658
65.9,IONIQ6,659,659,659,659,659,659,659,659,659,659,659,659,659
66,IONIQ6,660,660,660,660,660,660,660,660,660,660,660,660,660
66.1,IONIQ6,661,661,661,661,661,661,661,661,661,661,661,661,661
66.2,IONIQ6,662,662,662,662,662,662,662,662,662,662,662,662,662
66.3,IONIQ6,663,663,663,663,663,663,663,663,663,663,663,663,663
66.4,IONIQ6,664,664,664,664,664,664,664,664,664,664,664,664,664
66.5,IONIQ6,665,665,665,665,665,665,665,665,665,665,665,665,665
66.6,IONIQ6,666,666,666,666,666,666,666,666,666,666,666,666,666
66.7,IONIQ6,667,667,667,667,667,667,667,667,667,667,667,667,667
66.8,IONIQ6,668,668,668,668,668,668,668,668,668,668,668,668,668
66.9,IONIQ6,669,669,669,669,669,669,669,669,669,669,669,669,669
67,IONIQ6,670,670,670,670,670,670,670,670,670,670,670,670,670
67.1,IONIQ6,671,671,671,671,671,671,671,671,671,671,671,671,671
67.2,IONIQ6,672,672,672,672,672,672,672,672,672,672,672,672,672
67.3,IONIQ6,673,673,673,673,673,673,673,673,673,673,673,673,673
67.4,IONIQ6,674,674,674,674,674,674,674,674,674,674,674,674,674
67.5,IONIQ6,675,675,675,675,675,675,675,675,675,675,675,675,675
67.6,IONIQ6,676,676,676,676,676,676,676,676,676,676,676,676,676
67.7,IONIQ6,677,677,677,677,677,677,677,677,677,677,677,677,677
67.8,IONIQ6,678,678,678,678,678,678,678,678,678,678,678,678,678
67.9,IONIQ6,679,679,679,679,679,679,679,679,679,679,679,679,679
68,IONIQ6,680,680,680,680,680,680,680,680,680,680,680,680,680
68.1,IONIQ6,681,681,681,681,681,681,681,681,681,681,681,681,681
68.2,IONIQ6,682,682,682,682,682,682,682,682,682,682,682,682,682
68.3,IONIQ6,683,683,683,683,683,683,683,683,683,683,683,683,683
68.4,IONIQ6,684,684,684,684,684,684,684,684,684,684,684,684,684
68.5,IONIQ6,685,685,685,685,685,685,685,685,685,685,685,685,685
68.6,IONIQ6,686,686,686,686,686,686,686,686,686,686,686,686,686
68.7,IONIQ6,687,687,687,687,687,687,687,687,687,687,687,687,687
68.8,IONIQ6,688,688,688,688,688,688,688,688,688,688,688,688,688
68.9,IONIQ6,689,689,689,689,689,689,689,689,689,689,689,689,689
69,IONIQ6,690,690,690,690,690,690,690,690,690,690,690,690,690
69.1,IONIQ6,691,691,691,691,691,691,691,691,691,691,691,691,691
69.2,IONIQ6,692,692,692,692,692,692,692,692,692,692,692,692,692
69.3,IONIQ6,693,693,693,693,693,693,693,693,693,693,693,693,693
69.4,IONIQ6,694,694,694,694,694,694,694,694,694,694,694,694,694
69.5,IONIQ6,695,695,695,695,695,695,695,695,695,695,695,695,695
69.6,IONIQ6,696,696,696,696,696,696,696,696,696,696,696,696,696
69.7,IONIQ6,697,697,697,697,697,697,697,697,697,697,697,697,697
69.8,IONIQ6,698,698,698,698,698,698,698,698,698,698,698,698,698
69.9,IONIQ6,699,699,699,699,699,699,699,699,699,699,699,699,699
70,IONIQ6,700,700,700,700,700,700,700,700,700,700,700,700,700
70.1,IONIQ6,701,701,701,701,701,701,701,701,701,701,701,701,701
70.2,IONIQ6,702,702,702,702,702,702,702,702,702,702,702,702,702
70.3,IONIQ6,703,703,703,703,703,703,703,703,703,703,703,703,703
70.4,IONIQ6,704,704,704,704,704,704,704,704,704,704,704,704,704
70.5,IONIQ6,705,705,705,705,705,705,705,705,705,705,705,705,705
70.6,IONIQ6,706,706,706,706,706,706,706,706,706,706,706,706,706
70.7,IONIQ6,707,707,707,707,707,707,707,707,707,707,707,707,707
70.8,IONIQ6,708,708,708,708,708,708,708,708,708,708,708,708,708
70.9,IONIQ6,709,709,709,709,709,709,709,709,709,709,709,709,709
71,IONIQ6,710,710,710,710,710,710,710,710,710,710,710,710,710
71.1,IONIQ6,711,711,711,711,711,711,711,711,711,711,711,711,711
71.2,IONIQ6,712,712,712,712,712,712,712,712,712,712,712,712,712
71.3,IONIQ6,713,713,713,713,713,713,713,713,713,713,713,713,713
71.4,IONIQ6,714,714,714,714,714,714,714,714,714,714,714,714,714
71.5,IONIQ6,715,715,715,715,715,715,715,715,715,715,715,715,715
71.6,IONIQ6,716,716,716,716,716,716,716,716,716,716,716,716,716
71.7,IONIQ6,717,717,717,717,717,717,717,717,717,717,717,717,717
71.8,IONIQ6,718,718,718,718,718,718,718,718,718,718,718,718,718
71.9,IONIQ6,719,719,719,719,719,719,719,719,719,719,719,719,719
72,IONIQ6,720,720,720,720,720,720,720,720,720,720,720,720,720
72.1,IONIQ6,721,721,721,721,721,721,721,721,721,721,721,721,721
72.2,IONIQ6,722,722,722,722,722,722,722,722,722,722,722,722,722
72.3,IONIQ6,723,723,723,723,723,723,723,723,723,723,723,723,723
72.4,IONIQ6,724,724,724,724,724,724,724,724,724,724,724,724,724
72.5,IONIQ6,725,725,725,725,725,725,725,725,725,725,725,725,725
72.6,IONIQ6,726,726,726,726,726,726,726,726,726,726,726,726,726
72.7,IONIQ6,727,727,727,727,727,727,727,727,727,727,727,727,727
72.8,IONIQ6,728,728,728,728,728,728,728,728,728,728,728,728,728
72.9,IONIQ6,729,729,729,729,729,729,729,729,729,729,729,729,729
73,IONIQ6,730,730,730,730,730,730,730,730,730,730,730,730,730
73.1,IONIQ6,731,731,731,731,731,731,731,731,731,731,731,731,731
73.2,IONIQ6,732,732,732,732,732,732,732,732,732,732,732,732,732
73.3,IONIQ6,733,733,733,733,733,733,733,733,733,733,733,733,733
73.4,IONIQ6,734,734,734,734,734,734,734,734,734,734,734,734,734
73.5,IONIQ6,735,735,735,735,735,735,735,735,735,735,735,735,735
73.6,IONIQ6,736,736,736,736,736,736,736,736,736,736,736,736,736
73.7,IONIQ6,737,737,737,737,737,737,737,737,737,737,737,737,737
73.8,IONIQ6,738,738,738,738,738,738,738,738,738,738,738,738,738
73.9,IONIQ6,739,739,739,739,739,739,739,739,739,739,739,739,739
74,IONIQ6,740,740,740,740,740,740,740,740,740,740,740,740,740
74.1,IONIQ6,741,741,741,741,741,741,741,741,741,741,741,741,741
74.2,IONIQ6,742,742,742,742,742,742,742,742,742,742,742,742,742
74.3,IONIQ6,743,743,743,743,743,743,743,743,743,743,743,743,743
74.4,IONIQ6,744,744,744,744,744,744,744,744,744,744,744,744,744
74.5,IONIQ6,745,745,745,745,745,745,745,745,745,745,745,745,745
74.6,IONIQ6,746,746,746,746,746,746,746,746,746,746,746,746,746
74.7,IONIQ6,747,747,747,747,747,747,747,747,747,747,747,747,747
74.8,IONIQ6,748,748,748,748,748,748,748,748,748,748,748,748,748
74.9,IONIQ6,749,749,749,749,749,749,749,749,749,749,749,749,749
75,IONIQ6,750,750,750,750,750,750,750,750,750,750,750,750,750
75.1,IONIQ6,751,751,751,751,751,751,751,751,751,751,751,751,751
75.2,IONIQ6,752,752,752,752,752,752,752,752,752,752,752,752,752
75.3,IONIQ6,753,753,753,753,753,753,753,753,753,753,753,753,753
75.4,IONIQ6,754,754,754,754,754,754,754,754,754,754,754,754,754
75.5,IONIQ6,755,755,755,755,755,755,755,755,755,755,755,755,755
75.6,IONIQ6,756,756,756,756,756,756,756,756,756,756,756,756,756
75.7,IONIQ6,757,757,757,757,757,757,757,757,757,757,757,757,757
75.8,IONIQ6,758,758,758,758,758,758,758,758,758,758,758,758,758
75.9,IONIQ6,759,759,759,759,759,759,759,759,759,759,759,759,759
76,IONIQ6,760,760,760,760,760,760,760,760,760,760,760,760,760
76.1,IONIQ6,761,761,761,761,761,761,761,761,761,761,761,761,761
76.2,IONIQ6,762,762,762,762,762,762,762,762,762,762,762,762,762
76.3,IONIQ6,763,763,763,763,763,763,763,763,763,763,763,763,763
76.4,IONIQ6,764,764,764,764,764,764,764,764,764,764,764,764,764
76.5,IONIQ6,765,765,765,765,765,765,765,765,765,765,765,765,765
76.6,IONIQ6,766,766,766,766,766,766,766,766,766,766,766,766,766
76.7,IONIQ6,767,767,767,767,767,767,767,767,767,767,767,767,767
76.8,IONIQ6,768,768,768,768,768,768,768,768,768,768,768,768,768
76.9,IONIQ6,769,769,769,769,769,769,769,769,769,769,769,769,769
77,IONIQ6,770,770,770,770,770,770,770,770,770,770,770,770,770
77.1,IONIQ6,771,771,771,771,771,771,771,771,771,771,771,771,771
77.2,IONIQ6,772,772,772,772,772,772,772,772,772,772,772,772,772
77.3,IONIQ6,773,773,773,773,773,773,773,773,773,773,773,773,773
77.4,IONIQ6,774,774,774,774,774,774,774,774,774,774,774,774,774
77.5,IONIQ6,775,775,775,775,775,775,775,775,775,775,775,775,775
77.6,IONIQ6,776,776,776,776,776,776,776,776,776,776,776,776,776
77.7,IONIQ6,777,777,777,777,777,777,777,777,777,777,777,777,777
77.8,IONIQ6,778,778,778,778,778,778,778,778,778,778,778,778,778
77.9,IONIQ6,779,779,779,779,779,779,779,779,779,779,779,779,779
78,IONIQ6,780,780,780,780,780,780,780,780,780,780,780,780,780
78.1,IONIQ6,781,781,781,781,781,781,781,781,781,781,781,781,781
78.2,IONIQ6,782,782,782,782,782,782,782,782,782,782,782,782,782
78.3,IONIQ6,783,783,783,783,783,783,783,783,783,783,783,783,783
78.4,IONIQ6,784,784,784,784,784,784,784,784,784,784,784,784,784
78.5,IONIQ6,785,785,785,785,785,785,785,785,785,785,785,785,785
78.6,IONIQ6,786,786,786,786,786,786,786,786,786,786,786,786,786
78.7,IONIQ6,787,787,787,787,787,787,787,787,787,787,787,787,787
78.8,IONIQ6,788,788,788,788,788,788,788,788,788,788,788,788,788
78.9,IONIQ6,789,789,789,789,789,789,789,789,789,789,789,789,789
79,IONIQ6,790,790,790,790,790,790,790,790,790,790,790,790,790
79.1,IONIQ6,791,791,791,791,791,791,791,791,791,791,791,791,791
79.2,IONIQ6,792,792,792,792,792,792,792,792,792,792,792,792,792
79.3,IONIQ6,793,793,793,793,793,793,793,793,793,793,793,793,793
79.4,IONIQ6,794,794,794,794,794,794,794,794,794,794,794,794,794
79.5,IONIQ6,795,795,795,795,795,795,795,795,795,795,795,795,795
79.6,IONIQ6,796,796,796,796,796,796,796,796,796,796,796,796,796
79.7,IONIQ6,797,797,797,797,797,797,797,797,797,797,797,797,797
79.8,IONIQ6,798,798,798,798,798,798,798,798,798,798,798,798,798
79.9,IONIQ6,799,799,799,799,799,799,799,799,799,799,799,799,799
80,IONIQ6,800,800,800,800,800,800,800,800,800,800,800,800,800
80.1,IONIQ6,801,801,801,801,801,801,801,801,801,801,801,801,801
80.2,IONIQ6,802,802,802,802,802,802,802,802,802,802,802,802,802
80.3,IONIQ6,803,803,803,803,803,803,803,803,803,803,803,803,803
80.4,IONIQ6,804,804,804,804,804,804,804,804,804,804,804,804,804
80.5,IONIQ6,805,805,805,805,805,805,805,805,805,805,805,805,805
80.6,IONIQ6,806,806,806,806,806,806,806,806,806,806,806,806,806
80.7,IONIQ6,807,807,807,807,807,807,807,807,807,807,807,807,807
80.8,IONIQ6,808,808,808,808,808,808,808,808,808,808,808,808,808
80.9,IONIQ6,809,809,809,809,809,809,809,809,809,809,809,809,809
81,IONIQ6,810,810,810,810,810,810,810,810,810,810,810,810,810
81.1,IONIQ6,811,811,811,811,811,811,811,811,811,811,811,811,811
81.2,IONIQ6,812,812,812,812,812,812,812,812,812,812,812,812,812
81.3,IONIQ6,813,813,813,813,813,813,813,813,813,813,813,813,813
81.4,IONIQ6,814,814,814,814,814,814,814,814,814,814,814,814,814
81.5,IONIQ6,815,815,815,815,815,815,815,815,815,815,815,815,815
81.6,IONIQ6,816,816,816,816,816,816,816,816,816,816,816,816,816
81.7,IONIQ6,817,817,817,817,817,817,817,817,817,817,817,817,817
81.8,IONIQ6,818,818,818,818,818,818,818,818,818,818,818,818,818
81.9,IONIQ6,819,819,819,819,819,819,819,819,819,819,819,819,819
82,IONIQ6,820,820,820,820,820,820,820,820,820,820,820,820,820
82.1,IONIQ6,821,821,821,821,821,821,821,821,821,821,821,821,821
82.2,IONIQ6,822,822,822,822,822,822,822,822,822,822,822,822,822
82.3,IONIQ6,823,823,823,823,823,823,823,823,823,823,823,823,823
82.4,IONIQ6,824,824,824,824,824,824,824,824,824,824,824,824,824
82.5,IONIQ6,825,825,825,825,825,825,825,825,825,825,825,825,825
82.6,IONIQ6,826,826,826,826,826,826,826,826,826,826,826,826,826
82.7,IONIQ6,827,827,827,827,827,827,827,827,827,827,827,827,827
82.8,IONIQ6,828,828,828,828,828,828,828,828,828,828,828,828,828
82.9,IONIQ6,829,829,829,829,829,829,829,829,829,829,829,829,829
83,IONIQ6,830,830,830,830,830,830,830,830,830,830,830,830,830
83.1,IONIQ6,831,831,831,831,831,831,831,831,831,831,831,831,831
83.2,IONIQ6,832,832,832,832,832,832,832,832,832,832,832,832,832
83.3,IONIQ6,833,833,833,833,833,833,833,833,833,833,833,833,833
83.4,IONIQ6,834,834,834,834,834,834,834,834,834,834,834,834,834
83.5,IONIQ6,835,835,835,835,835,835,835,835,835,835,835,835,835
83.6,IONIQ6,836,836,836,836,836,836,836,836,836,836,836,836,836
83.7,IONIQ6,837,837,837,837,837,837,837,837,837,837,837,837,837
83.8,IONIQ6,838,838,838,838,838,838,838,838,838,838,838,838,838
83.9,IONIQ6,839,839,839,839,839,839,839,839,839,839,839,839,839
84,IONIQ6,840,840,840,840,840,840,840,840,840,840,840,840,840
84.1,IONIQ6,841,841,841,841,841,841,841,841,841,841,841,841,841
84.2,IONIQ6,842,842,842,842,842,842,842,842,842,842,842,842,842
84.3,IONIQ6,843,843,843,843,843,843,843,843,843,843,843,843,843
84.4,IONIQ6,844,844,844,844,844,844,844,844,844,844,844,844,844
84.5,IONIQ6,845,845,845,845,845,845,845,845,845,845,845,845,845
84.6,IONIQ6,846,846,846,846,846,846,846,846,846,846,846,846,846
84.7,IONIQ6,847,847,847,847,847,847,847,847,847,847,847,847,847
84.8,IONIQ6,848,848,848,848,848,848,848,848,848,848,848,848,848
84.9,IONIQ6,849,849,849,849,849,849,849,849,849,849,849,849,849
85,IONIQ6,850,850,850,850,850,850,850,850,850,850,850,850,850
85.1,IONIQ6,851,851,851,851,851,851,851,851,851,851,851,851,851
85.2,IONIQ6,852,852,852,852,852,852,852,852,852,852,852,852,852
85.3,IONIQ6,853,853,853,853,853,853,853,853,853,853,853,853,853
85.4,IONIQ6,854,854,854,854,854,854,854,854,854,854,854,854,854
85.5,IONIQ6,855,855,855,855,855,855,855,855,855,855,855,855,855
85.6,IONIQ6,856,856,856,856,856,856,856,856,856,856,856,856,856
85.7,IONIQ6,857,857,857,857,857,857,857,857,857,857,857,857,857
85.8,IONIQ6,858,858,858,858,858,858,858,858,858,858,858,858,858
85.9,IONIQ6,859,859,859,859,859,859,859,859,859,859,859,859,859
86,IONIQ6,860,860,860,860,860,860,860,860,860,860,860,860,860
86.1,IONIQ6,861,861,861,861,861,861,861,861,861,861,861,861,861
86.2,IONIQ6,862,862,862,862,862,862,862,862,862,862,862,862,862
86.3,IONIQ6,863,863,863,863,863,863,863,863,863,863,863,863,863
86.4,IONIQ6,864,864,864,864,864,864,864,864,864,864,864,864,864
86.5,IONIQ6,865,865,865,865,865,865,865,865,865,865,865,865,865
86.6,IONIQ6,866,866,866,866,866,866,866,866,866,866,866,866,866
86.7,IONIQ6,867,867,867,867,867,867,867,867,867,867,867,867,867
86.8,IONIQ6,868,868,868,868,868,868,868,868,868,868,868,868,868
86.9,IONIQ6,869,869,869,869,869,869,869,869,869,869,869,869,869
87,IONIQ6,870,870,870,870,870,870,870,870,870,870,870,870,870
87.1,IONIQ6,871,871,871,871,871,871,871,871,871,871,871,871,871
87.2,IONIQ6,872,872,872,872,872,872,872,872,872,872,872,872,872
87.3,IONIQ6,873,873,873,873,873,873,873,873,873,873,873,873,873
87.4,IONIQ6,874,874,874,874,874,874,874,874,874,874,874,874,874
